{'html_attributions': [], 
'next_page_token': 'ATplDJYjwLeqMLm7B_7SQHWm6bSe4mRAwCGcXMCUVhj2YVcrKo0kwQV_oFAQwEY3QxOQEz_nK_pXXmZqFrygKHYWSaFNkHoWN04Wrw7Oivc-0OKvFYbj0YYGCeP7VuCKrB17TpmsiHKM1Wnb5x8I4ro73wiRzEkhWfZpUXILDWsODWEMhruMfut4C_-RfXmZK4QpmwaOF67imCNcuDQxxn-3YyV3W2hrsBgZ_KF3AQvocaO2cTTxO4NImn6XDU7ls0CUcnT11USaiRwLcKc0ONh-cyrznfHu8j-05Xwy4pQIpNDFdI5QzIBk1Mv_KP3HWSwIj2TI5jWFMpmJ17MyAqz7KBGcifJN4ZODIzndAdBX5uM2OiO1DYWXXvv2s5DXI0TzP1KeAZmn3sUTSCDhIDxSNyu5yCgtMZVGy7atQX02L1YXYf4roRe2fhebOYxu', 
'results': [
    {'business_status': 'OPERATIONAL',
     'geometry': {'location': {'lat': 40.3913132, 'lng': -111.5778256},
     'viewport': {'northeast': {'lat': 40.39256908029149, 'lng': -111.5763689197085},'southwest': {'lat': 40.38987111970849, 'lng': -111.5790668802915}}}, 
     'icon': 'https://maps.gstatic.com/mapfiles/place_api/icons/v1/png_71/lodging-71.png', 
     'icon_background_color': '#909CE1', 
     'icon_mask_base_uri': 'https://maps.gstatic.com/mapfiles/place_api/icons/v2/hotel_pinlet', 
     'name': 'Sundance Resort', 
     'photos': [{'height': 4363, 
     'html_attributions': ['<a href="https://maps.google.com/maps/contrib/101882504974506474829">Sundance Resort</a>'], 
     'photo_reference': 'ATplDJYdLMeNhrWAFgXo9S0pq3o4j3ud_1zQAM7DeUs9YgQamXSwLrfXUmqb-B-9pWu03JkV0Lk_xIzvtTEezJzNxx9abMgi5_JUKkiadLGUmSHZ3OLT9fya4VsJo4-195ub9bsPQ0kydOOWO6JTynVLwkzGLMLvaVBmBRQjTFZEOe9EAn-K', 
     'width': 6545}], 
     'place_id': 'ChIJOwWbtaSOTYcRJxYJs-V32R8', 
     'plus_code': {'compound_code': '9CRC+GV Sundance, UT, USA', 'global_code': '85GC9CRC+GV'}, 
     'rating': 4.6, 
     'reference': 'ChIJOwWbtaSOTYcRJxYJs-V32R8',
     'scope': 'GOOGLE', 
     'types': ['travel_agency', 'lodging', 'spa', 'restaurant', 'food', 'point_of_interest', 'establishment'], 
     'user_ratings_total': 5561, 
     'vicinity': '8841 Alpine Loop Scenic Byway, Sundance'}, 
    
    {'business_status': 'OPERATIONAL', 
    'geometry': {'location': {'lat': 40.2783711, 'lng': -111.6771423}, 
    'viewport': {'northeast': {'lat': 40.2795539802915, 'lng': -111.6758594197085}, 
    'southwest': {'lat': 40.2768560197085, 'lng': -111.6785573802915}}}, 
    'icon': 'https://maps.gstatic.com/mapfiles/place_api/icons/v1/png_71/movies-71.png', 
    'icon_background_color': '#13B5C7', 'icon_mask_base_uri': 'https://maps.gstatic.com/mapfiles/place_api/icons/v2/movie_pinlet', 
    'name': 'Cinemark University Mall', 
    'photos': [{'height': 1080, 'html_attributions': ['<a href="https://maps.google.com/maps/contrib/118079033749288136942">Shayne Fisher</a>'], 
    'photo_reference': 'ATplDJZyMG6M5LMwdDgTqn1XO5xIvBJ6vUEgnDAPdlLQT2AvxfJm66PazJ-eYzbZgLlMJ6SvFNdhjXl3jYMVKhkvj3DfDW0fJcNXvlBNJPUa6GlAyFoeT9GJ-hhRN8mudqvNeIQVK4Y4Uz5bYfVOkRkRea8wPHlQoRdtr7Of4vXrMn1dt0SR', 
    'width': 1920}], 
    'place_id': 'ChIJTYpVoIWaTYcRZasKz-PGp5k', 
    'plus_code': {'compound_code': '78HF+84 Orem, UT, USA', 'global_code': '85GC78HF+84'}, 
    'rating': 4.5, 
    'reference': 'ChIJTYpVoIWaTYcRZasKz-PGp5k', 
    'scope': 'GOOGLE', 
    'types': ['movie_theater', 'meal_takeaway', 'restaurant', 'food', 'point_of_interest', 'establishment'], 
    'user_ratings_total': 2236, 
    'vicinity': '1010 South 800 East, Orem'}, 
    
    {'business_status': 'OPERATIONAL', 
    'geometry': {'location': {'lat': 40.38810159999999, 'lng': -111.8275537}, 
    'viewport': {'northeast': {'lat': 40.3896092302915, 'lng': -111.8260483197085}, 
    'southwest': {'lat': 40.3869112697085, 'lng': -111.8287462802915}}}, 
    'icon': 'https://maps.gstatic.com/mapfiles/place_api/icons/v1/png_71/restaurant-71.png', 
    'icon_background_color': '#FF9E67', 
    'icon_mask_base_uri': 'https://maps.gstatic.com/mapfiles/place_api/icons/v2/restaurant_pinlet', 
    'name': 'Texas Roadhouse', 
    'opening_hours': {'open_now': False}, 
    'photos': [{'height': 2268, 'html_attributions': ['<a href="https://maps.google.com/maps/contrib/108918536643886963179">Rev. C McFarland</a>'], 'photo_reference': 'ATplDJbBt_qKiXOLmtBe3rjtbeVJ0OZBCj8Mk9snlgOjiWh18XTBEureXBhOKf88E3ubef8-NGYb5BIfdBlg0aRqlLnUyonXekYgZ4roO9iR9orZT4brYE8XcqYPsa87fuuzkohapoY5MZhcbLtKD5mXC3YJN3aDW-D2D_tiCD9UIUrVu3Aw','width': 4032}], 
    'place_id': 'ChIJRdPUvLeBTYcRBcWYE_HOWhE', 
    'plus_code': {'compound_code': '95QC+6X Lehi, UT, USA', 'global_code': '85GC95QC+6X'}, 
    'price_level': 2, 
    'rating': 4.3, 
    'reference': 'ChIJRdPUvLeBTYcRBcWYE_HOWhE', 
    'scope': 'GOOGLE', 
    'types': ['restaurant', 'food', 'point_of_interest', 'establishment'], 
    'user_ratings_total': 4698, 
    'vicinity': '1402 East Main Street, Lehi'}, 
    
    {'business_status': 'OPERATIONAL', 
    'geometry': {'location': {'lat': 40.263632, 'lng': -111.667206}, 
    'viewport': {'northeast': {'lat': 40.2650295802915, 'lng': -111.6659962697085}, 
    'southwest': {'lat': 40.2623316197085, 'lng': -111.6686942302915}}}, 
    'icon': 'https://maps.gstatic.com/mapfiles/place_api/icons/v1/png_71/restaurant-71.png', 
    'icon_background_color': '#FF9E67', 'icon_mask_base_uri': 
    'https://maps.gstatic.com/mapfiles/place_api/icons/v2/restaurant_pinlet', 
    'name': 'Olive Garden Italian Restaurant', 
    'opening_hours': {'open_now': False}, 
    'photos': [{'height': 2268, 
    'html_attributions': ['<a href="https://maps.google.com/maps/contrib/109323424909017350175">Peter Herget & Gadgets Anonymous</a>'], 
    'photo_reference': 'ATplDJbof-aeXGX8CoFn1vK6fVk2Ay2R0jkgzo8UGK9gG1Pt9XVYXtaitB9J8so2EHL6QvCEfh5hJBSKqSmVFLlHjlue_-6uQLFpK7Lg1Kd-Qa45lI2w4Ee9e9OqePk94U8KYVYT3FZ_8JFU47cFYEJgToxYlJ9H5qlhyfumFlYWgoreYt4A', 
    'width': 4032}], 
    'place_id': 'ChIJvWulHniaTYcROzMKo44399U', 
    'plus_code': {'compound_code': '787M+F4 Provo, UT, USA', 'global_code': '85GC787M+F4'}, 
    'price_level': 2, 
    'rating': 4.4, 
    'reference': 'ChIJvWulHniaTYcROzMKo44399U', 
    'scope': 'GOOGLE', 
    'types': ['meal_takeaway', 'bar', 'restaurant', 'food', 'point_of_interest', 'establishment'], 
    'user_ratings_total': 3197, 
    'vicinity': '504 West 2230 North, Provo'}, 
    
    {'business_status': 'OPERATIONAL', 'geometry': {'location': {'lat': 40.2736275, 'lng': -111.6794232}, 'viewport': {'northeast': {'lat': 40.27497668029149, 'lng': -111.6782104197085}, 'southwest': {'lat': 40.2722787197085, 'lng': -111.6809083802915}}}, 'icon': 'https://maps.gstatic.com/mapfiles/place_api/icons/v1/png_71/restaurant-71.png', 'icon_background_color': '#FF9E67', 'icon_mask_base_uri': 'https://maps.gstatic.com/mapfiles/place_api/icons/v2/restaurant_pinlet', 'name': "Carrabba's Italian Grill", 'opening_hours': {'open_now': False}, 'photos': [{'height': 3006, 'html_attributions': ['<a href="https://maps.google.com/maps/contrib/101196962493526569865">Chris Hartung</a>'], 'photo_reference': 'ATplDJZ33laVS8q2QsqfBEPjeYJW7ZRCzeeCxtlPePJycCciBsi2_j7eptxqrnWanni3ewiU8mXq0qAA2GliOKQtVjoQq5NNyVcGhBKxUYwmToa31hnYB5HRnxO5IsGqyCr0FI044tEr2v_sUApn-Qsyxqc9rZqstBBYjy51ZgriVxgCIAaK', 'width': 3920}], 'place_id': 'ChIJ6dB3YoiaTYcR7SEDJXTUJrI', 'plus_code': {'compound_code': '78FC+F6 Orem, UT, USA', 'global_code': '85GC78FC+F6'}, 'price_level': 2, 'rating': 4.1, 'reference': 'ChIJ6dB3YoiaTYcR7SEDJXTUJrI', 'scope': 'GOOGLE', 'types': ['meal_takeaway', 'bar', 'restaurant', 'food', 'point_of_interest', 'establishment'], 'user_ratings_total': 1818, 'vicinity': 'University Mall, 683 East University Parkway, Orem'}, {'business_status': 'OPERATIONAL', 'geometry': {'location': {'lat': 40.377269, 'lng': -111.81243}, 'viewport': {'northeast': {'lat': 40.3785652802915, 'lng': -111.8112693697085}, 'southwest': {'lat': 40.3758673197085, 'lng': -111.8139673302915}}}, 'icon': 'https://maps.gstatic.com/mapfiles/place_api/icons/v1/png_71/restaurant-71.png', 'icon_background_color': '#FF9E67', 'icon_mask_base_uri': 'https://maps.gstatic.com/mapfiles/place_api/icons/v2/restaurant_pinlet', 'name': 'Olive Garden Italian Restaurant', 'opening_hours': {'open_now': False}, 'photos': [{'height': 412, 'html_attributions': ['<a href="https://maps.google.com/maps/contrib/100849467759278066386">Carlos Strawder</a>'], 'photo_reference': 'ATplDJbE-BdidDQ1nugFydPuUdb8swkGDzsXXRjXoezwJrOQ7Apxe7jnUP58pXo7tqDnB31ZIRkPOlZ1TNQc6XEzSK1iGF-u1spwzTFxCwBGI--oVjGiO2tjblSowKgA342fz5GmW6wCAtEL0mmqpNpDOvwzhOxoRLQY-wLGv3yzS2LKG2xp', 'width': 612}], 'place_id': 'ChIJzcyr856BTYcRV61flyZIjUc', 'plus_code': {'compound_code': '95GQ+W2 American Fork, UT, USA', 'global_code': '85GC95GQ+W2'}, 'price_level': 2, 'rating': 4.2, 'reference': 'ChIJzcyr856BTYcRV61flyZIjUc', 'scope': 'GOOGLE', 'types': ['meal_takeaway', 'bar', 'restaurant', 'food', 'point_of_interest', 'establishment'], 'user_ratings_total': 3599, 'vicinity': '538 West Main Street, American Fork'}, {'business_status': 'OPERATIONAL', 'geometry': {'location': {'lat': 40.2931963, 'lng': -111.6948739}, 'viewport': {'northeast': {'lat': 40.2946543302915, 'lng': -111.6933412197085}, 'southwest': {'lat': 40.2919563697085, 'lng': -111.6960391802915}}}, 'icon': 'https://maps.gstatic.com/mapfiles/place_api/icons/v1/png_71/generic_business-71.png', 'icon_background_color': '#7B9EB0', 'icon_mask_base_uri': 'https://maps.gstatic.com/mapfiles/place_api/icons/v2/generic_pinlet', 'name': 'Classic Skating & Fun Center', 'opening_hours': {'open_now': False}, 'photos': [{'height': 1365, 'html_attributions': ['<a href="https://maps.google.com/maps/contrib/114377558904003773596">Classic Skating & Fun Center</a>'], 'photo_reference': 'ATplDJafaswNziKTeWMEClqNf_nIdWDbNS6zKNFR2I3izUK1hxfe8XLADGeOQIJvsEvUTPGYVZeSwvBjc1QptTgnYbhe24YStIkDtMgLAJ6IsP7I3xs08zbJhGOP2tQRGkGL3GTRXVyhRwt6DF8fvrl0YIOJqaNo2_vr03E4N710NIian2qK', 'width': 2048}], 'place_id': 'ChIJu5vu2saaTYcRYCoctQdoEM0', 'plus_code': {'compound_code': '78V4+73 Orem, UT, USA', 'global_code': '85GC78V4+73'}, 'rating': 4.3, 'reference': 'ChIJu5vu2saaTYcRYCoctQdoEM0', 'scope': 'GOOGLE', 'types': ['amusement_park', 'restaurant', 'food', 'point_of_interest', 'store', 'establishment'], 'user_ratings_total': 1985, 'vicinity': '250 State Street, Orem'}, {'business_status': 'OPERATIONAL', 'geometry': {'location': {'lat': 40.27900510000001, 'lng': -111.715912}, 'viewport': {'northeast': {'lat': 40.2806494302915, 'lng': -111.7151803697085}, 'southwest': {'lat': 40.2779514697085, 'lng': -111.7178783302915}}}, 'icon': 'https://maps.gstatic.com/mapfiles/place_api/icons/v1/png_71/restaurant-71.png', 'icon_background_color': '#FF9E67', 'icon_mask_base_uri': 'https://maps.gstatic.com/mapfiles/place_api/icons/v2/restaurant_pinlet', 'name': 'Subway', 'opening_hours': {'open_now': False}, 'photos': [{'height': 683, 'html_attributions': ['<a href="https://maps.google.com/maps/contrib/116577994838064474124">Subway</a>'], 'photo_reference': 'ATplDJaXOUlTzS9-xulBSm-BqaNQKvLS4XTienstRflE5DpVtODHb53ftkydACe8HHMWQPxuPLMegPiBCRlblb6JjD2NZhDwNV1NZNBIdgX6k_x5P7RSwbtCLm29ZFsfJdygwqrEiSArT4eovm4RnsWsV0Aniw0i3c3g7vGAanZD7heV4R1c', 'width': 1024}], 'place_id': 'ChIJOS2XbeKaTYcRF2sFfZXs7N4', 'plus_code': {'compound_code': '77HM+JJ Orem, UT, USA', 'global_code': '85GC77HM+JJ'}, 'price_level': 1, 'rating': 3.6, 'reference': 'ChIJOS2XbeKaTYcRF2sFfZXs7N4', 'scope': 'GOOGLE', 'types': ['meal_takeaway', 'restaurant', 'food', 'point_of_interest', 'establishment'], 'user_ratings_total': 106, 'vicinity': '800 W University Pkwy 100 A N Lockhart Building, Orem'}, {'business_status': 'OPERATIONAL', 'geometry': {'location': {'lat': 40.3490761, 'lng': -111.7323729}, 'viewport': {'northeast': {'lat': 40.3504764302915, 'lng': -111.7309338197085}, 'southwest': {'lat': 40.3477784697085, 'lng': -111.7336317802915}}}, 'icon': 'https://maps.gstatic.com/mapfiles/place_api/icons/v1/png_71/restaurant-71.png', 'icon_background_color': '#FF9E67', 'icon_mask_base_uri': 'https://maps.gstatic.com/mapfiles/place_api/icons/v2/restaurant_pinlet', 'name': 'Subway', 'opening_hours': {'open_now': True}, 'photos': [{'height': 2358, 'html_attributions': ['<a href="https://maps.google.com/maps/contrib/114905530916262802627">Brent Lundell</a>'], 'photo_reference': 'ATplDJaUBJghBuEfTE_nXy1HqXrUTYILt0Sw6h2BakUBMH3Mg8BST6JWhKF9nUP_6QZNPVpLagXjAyp-LoOXkXzgE6qZ_VfIiAPa24aCvrwb5lZwtlIezAn8satns0OgYiuPgBPyt0GXVIU249OfOufZ7CtCx5a7XmmeNp_6hkjmddNHLqlq', 'width': 4190}], 'place_id': 'ChIJyx5hKUWETYcRcEaZC0DEFcE', 'plus_code': {'compound_code': '87X9+J3 Lindon, UT, USA', 'global_code': '85GC87X9+J3'}, 'price_level': 1, 'rating': 3.4, 'reference': 'ChIJyx5hKUWETYcRcEaZC0DEFcE', 'scope': 'GOOGLE', 'types': ['meal_takeaway', 'restaurant', 'food', 'point_of_interest', 'establishment'], 'user_ratings_total': 153, 'vicinity': '585 North State Street, Lindon'}, {'business_status': 'OPERATIONAL', 'geometry': {'location': {'lat': 40.2745477, 'lng': -111.6816521}, 'viewport': {'northeast': {'lat': 40.2758283302915, 'lng': -111.6802289197085}, 'southwest': {'lat': 40.2731303697085, 'lng': -111.6829268802915}}}, 'icon': 'https://maps.gstatic.com/mapfiles/place_api/icons/v1/png_71/restaurant-71.png', 'icon_background_color': '#FF9E67', 'icon_mask_base_uri': 'https://maps.gstatic.com/mapfiles/place_api/icons/v2/restaurant_pinlet', 'name': "P.F. Chang's", 'opening_hours': {'open_now': False}, 'photos': [{'height': 4032, 'html_attributions': ['<a href="https://maps.google.com/maps/contrib/109772336338395690847">Tamilisa Miner</a>'], 'photo_reference': 'ATplDJZ1uHEzO25ZJIxN0qmtuDqkcqK-QTUDxRO--bOVolLAUOW6wWTpwiMufjFKTxWwpsJ8o13OY70Lp2ja7AgJGqfUv0qomgaeMPVd5X8ldLIbIjoCc1KWUSvy5BJFvtnRQ-68r-n2UWpB6_vIyBWCnwUwM4O2A6mIzBv-YdiOY-SHAyk0', 'width': 3024}], 'place_id': 'ChIJxxHS-YuaTYcRHKmoEjlZAQY', 'plus_code': {'compound_code': '78F9+R8 Orem, UT, USA', 'global_code': '85GC78F9+R8'}, 'price_level': 2, 'rating': 4.3, 'reference': 
